,City,Cloudiness,Country,Date,Humidity,Lat,Lng,Max_Temp,Wind_Speed
0,Iqaluit,75,CA,1569263240,75,63.75,-68.52,41.0,11.41
1,Cidreira,11,BR,1569263234,54,-30.17,-50.22,63.65,14.34
2,New Norfolk,40,AU,1569262959,90,-42.78,147.06,48.2,12.75
3,Deputatskiy,92,RU,1569263250,98,69.3,139.9,27.29,2.21
4,Aklavik,90,CA,1569263639,93,68.22,-135.01,39.2,3.36
5,Bluff,95,AU,1569263230,78,-23.58,149.07,62.57,3.29
6,Mehamn,40,NO,1569263639,75,71.03,27.85,41.0,24.16
7,San Quintin,10,PH,1569263238,93,17.54,120.52,73.55,2.75
8,Fortuna,0,ES,1569263228,50,38.18,-1.13,79.0,3.36
9,Vaini,20,IN,1569263231,91,15.34,74.49,74.81,1.39
10,Ust-Nera,89,RU,1569263639,95,64.57,143.24,26.39,5.79
11,Souillac,0,FR,1569263640,82,45.6,-0.6,66.0,3.36
12,Samarai,97,PG,1569263256,91,-10.62,150.67,69.41,3.96
13,Hithadhoo,100,MV,1569263214,81,-0.6,73.08,78.77,4.54
14,Port Alfred,14,ZA,1569263245,83,-33.59,26.89,57.99,3.0
15,Rikitea,100,PF,1569263040,74,-23.12,-134.97,68.87,15.5
16,Puerto Ayora,20,EC,1569263215,61,-0.74,-90.35,77.0,19.46
17,Busselton,100,AU,1569263216,61,-33.64,115.35,50.0,9.1
18,Mataura,76,NZ,1569263048,92,-46.19,168.86,42.01,4.0
19,Punta Arenas,90,CL,1569263215,66,-53.16,-70.91,51.8,14.99
20,Hobart,40,AU,1569263151,90,-42.88,147.33,48.2,12.75
21,Sao Filipe,20,CV,1569263217,83,14.9,-24.5,80.93,24.47
22,Saint George,40,GR,1569263214,73,39.45,22.34,69.8,8.05
23,Barrow,0,AR,1569263047,48,-38.31,-60.23,70.85,16.91
24,Klaksvik,100,FO,1569263216,93,62.23,-6.59,53.6,19.46
25,Lompoc,90,US,1569263424,87,34.64,-120.46,79.0,9.17
26,Butaritari,89,KI,1569263244,67,3.07,172.79,83.81,5.73
27,Albany,90,US,1569263218,45,42.65,-73.75,87.01,10.29
28,Ossora,100,RU,1569263264,92,59.24,163.07,40.07,4.25
29,Jamestown,0,AU,1569263229,92,-33.21,138.6,38.81,3.2
30,Paita,0,PE,1569263641,290,-5.09,-81.11,62.6,14.99
31,Hermanus,0,ZA,1569263217,82,-34.42,19.24,59.0,10.83
32,Salalah,75,OM,1569263252,74,17.01,54.1,82.4,8.05
33,Pacific Grove,20,US,1569263575,64,36.62,-121.92,78.01,5.82
34,Saldanha,100,PT,1569263223,44,41.42,-6.55,69.41,6.44
35,Turukhansk,96,RU,1569263641,86,65.8,87.96,37.91,14.29
36,Mansa,75,IN,1569263641,83,23.43,72.66,78.8,12.75
37,Sisimiut,100,GL,1569263250,89,66.94,-53.67,39.89,16.33
38,Visby,0,SE,1569263642,70,57.64,18.3,51.01,6.93
39,Bluefield,90,US,1569263642,47,37.27,-81.22,87.01,10.29
40,Keokuk,1,US,1569263642,56,40.4,-91.39,75.0,8.05
41,Nemuro,100,JP,1569263642,93,43.32,145.57,59.87,24.36
42,Bathsheba,40,BB,1569263273,88,13.22,-59.52,78.8,16.11
43,Isangel,10,VU,1569263642,63,-19.55,169.27,71.93,15.23
44,Paamiut,88,GL,1569263642,68,61.99,-49.67,40.43,3.8
45,Carnarvon,0,ZA,1569263214,27,-30.97,22.13,53.57,15.66
46,Meulaboh,77,ID,1569263247,79,4.14,96.13,81.47,6.49
47,Bredasdorp,0,ZA,1569263048,71,-34.53,20.04,55.0,3.36
48,Kapaa,40,US,1569262980,88,22.08,-159.32,84.2,9.17
49,Lubumbashi,0,CD,1569263643,26,-11.66,27.48,73.73,4.63
50,East London,0,ZA,1569263469,76,-33.02,27.91,55.4,10.29
51,Kahului,40,US,1569263643,66,20.89,-156.47,84.2,5.82
52,Begoro,76,GH,1569263644,91,6.38,-0.38,74.27,2.26
53,South River,1,US,1569263644,40,40.45,-74.39,93.0,5.82
54,Port Elizabeth,1,US,1569263236,45,39.31,-74.98,93.0,6.93
55,Chuy,0,UY,1569263644,65,-33.69,-53.46,57.53,14.23
56,Bethel,90,US,1569263170,93,60.79,-161.76,41.0,12.75
57,Homer,90,US,1569263279,57,59.64,-151.54,50.0,6.93
58,Jiayuguan,0,CN,1569263644,27,39.77,98.29,60.23,3.65
59,Nanortalik,15,GL,1569263248,74,60.14,-45.24,40.61,1.28
60,Nome,75,US,1569263255,62,30.04,-94.42,91.4,6.93
61,Cape Town,0,ZA,1569263165,77,-33.93,18.42,61.0,17.22
62,Bambous Virieux,40,MU,1569263223,68,-20.34,57.76,71.6,18.34
63,La Ronge,90,CA,1569263033,76,55.1,-105.3,57.2,21.92
64,Port Hardy,90,CA,1569263217,87,50.7,-127.42,51.8,17.22
65,Pevek,96,RU,1569263215,79,69.7,170.27,34.85,13.2
66,College,1,US,1569263107,80,64.86,-147.8,41.0,1.21
67,Nikolskoye,75,RU,1569263216,56,59.7,30.79,42.8,8.95
68,Atuona,45,PF,1569263068,79,-9.8,-139.03,78.95,17.85
69,Kalamata,0,GR,1569263645,64,37.04,22.11,77.0,5.82
70,Luderitz,0,NA,1569263223,25,-26.65,15.16,73.4,21.92
71,Hilo,90,US,1569263238,83,19.71,-155.08,78.8,6.93
72,Ponta do Sol,28,BR,1569263218,45,-20.63,-46.0,80.39,12.12
73,Penzance,58,GB,1569263645,100,50.12,-5.53,63.0,18.34
74,Ancud,90,CL,1569263230,81,-41.87,-73.83,53.6,9.17
75,Ekibastuz,0,KZ,1569263645,34,51.72,75.32,55.91,21.88
76,Chiang Khong,0,LA,1569263646,88,20.27,100.41,71.6,2.98
77,Oudtshoorn,0,ZA,1569263646,66,-33.59,22.2,55.4,2.24
78,Kruisfontein,0,ZA,1569263041,78,-34.0,24.73,51.59,5.57
79,Sabang,4,PH,1569263646,96,13.8,121.11,72.47,2.66
80,Flin Flon,40,CA,1569263646,52,54.77,-101.88,69.8,11.41
81,Ushuaia,75,AR,1569263214,81,-54.81,-68.31,46.4,4.29
82,Chingola,27,ZM,1569263647,20,-12.55,27.86,73.73,3.27
83,Severo-Kurilsk,87,RU,1569263227,82,50.68,156.12,48.53,5.88
84,Provideniya,0,RU,1569263231,68,64.42,-173.23,28.73,1.01
85,Coquimbo,20,CL,1569263254,67,-29.95,-71.34,59.0,12.75
86,Beringovskiy,0,RU,1569263647,60,63.05,179.32,28.01,5.35
87,Biak,74,ID,1569263647,98,-0.91,122.88,60.05,3.22
88,Tocopilla,32,CL,1569263444,86,-22.09,-70.2,58.07,14.54
89,Broome,40,GB,1569263265,68,52.47,1.45,64.4,12.75
90,Boralday,75,KZ,1569263647,76,43.36,76.86,55.4,4.47
91,Honningsvag,100,NO,1569263647,70,70.98,25.97,39.89,15.97
92,Vestmannaeyjar,90,IS,1569263251,100,63.44,-20.27,50.0,23.04
93,Carutapera,75,BR,1569263246,63,-1.2,-46.02,84.89,9.53
94,Nechi,85,CO,1569263648,63,5.59,-75.16,71.01,0.31
95,Khatanga,95,RU,1569263265,61,71.98,102.47,37.91,19.6
96,Todos Santos,20,MX,1569263648,62,23.45,-110.23,87.01,6.93
97,Ahipara,100,NZ,1569263264,100,-35.17,173.16,57.0,37.78
98,Kokopo,100,PG,1569263648,92,-4.34,152.27,69.59,1.5
99,Lodja,29,CD,1569263222,60,-3.52,23.6,79.31,1.61
100,Mathbaria,100,BD,1569263648,88,22.29,89.96,79.67,4.65
101,Yarmouth,75,CA,1569263271,82,43.84,-66.12,70.0,17.22
102,Balabac,2,PH,1569263649,82,7.99,117.06,80.75,9.98
103,Itoman,75,JP,1569263256,78,26.12,127.67,77.0,13.87
104,Faanui,0,PF,1569263223,81,-16.48,-151.75,79.67,12.62
105,Balotra,63,IN,1569263649,46,25.83,72.24,91.01,11.88
106,Hamilton,75,CA,1569263113,64,43.26,-79.87,77.0,11.41
107,Georgetown,40,GY,1569263116,70,6.8,-58.16,87.8,11.41
108,Berlevag,40,NO,1569263649,75,70.86,29.09,41.0,24.16
109,Horsham,1,AU,1569263649,95,-36.71,142.2,36.11,3.47
110,Mercedes,21,UY,1569263650,26,-33.25,-58.03,71.01,8.01
111,Skibbereen,75,IE,1569263650,93,51.55,-9.27,60.8,14.99
112,Naqadeh,0,IR,1569263549,24,36.96,45.39,49.61,8.03
113,Wattegama,100,LK,1569263650,83,7.35,80.68,74.63,3.2
114,Dikson,100,RU,1569263228,95,73.51,80.55,33.77,29.08
115,Thompson,40,CA,1569263225,46,55.74,-97.86,73.4,10.29
116,Qaanaaq,100,GL,1569263213,66,77.48,-69.36,29.99,4.32
117,Nishihara,1,JP,1569263650,88,35.74,139.53,82.99,11.79
118,Quatre Cocos,40,MU,1569263056,68,-20.21,57.76,71.6,18.34
119,Tigre,0,AR,1569263651,37,-34.42,-58.58,68.0,9.17
120,Yeppoon,100,AU,1569263651,88,-23.13,150.74,62.6,1.28
121,Bogoslovka,0,RU,1569263651,89,56.8,86.72,42.95,8.28
122,Puqi,46,CN,1569263651,49,29.72,113.88,67.07,3.13
123,Mar del Plata,13,AR,1569263220,39,-46.43,-67.52,64.01,26.13
124,Avarua,100,CK,1569263219,93,-21.21,-159.78,66.2,3.36
125,Christchurch,68,NZ,1569263552,93,-43.53,172.64,45.0,8.05
126,Bonthe,98,SL,1569263284,81,7.53,-12.5,77.69,7.07
127,Mianwali,0,PK,1569263652,33,32.57,71.58,91.01,6.98
128,Santa Isabel do Rio Negro,84,BR,1569263614,53,-0.41,-65.02,88.31,3.96
129,Emba,0,CY,1569263237,69,34.81,32.42,77.0,5.82
130,Mogadishu,32,SO,1569263652,77,2.04,45.34,76.79,16.37
131,Jinchang,0,CN,1569263652,45,38.52,102.19,53.75,2.35
132,Port Blair,100,IN,1569263652,86,11.67,92.75,79.49,20.18
133,Astana,0,KZ,1569263652,47,51.13,71.43,55.4,29.08
134,Alice Springs,90,AU,1569263071,50,-23.7,133.88,55.4,6.93
135,Saint-Augustin,90,CA,1569263653,100,45.63,-73.98,75.0,4.7
136,Mattru,94,SL,1569263653,87,7.62,-11.83,77.51,5.32
137,Baoying,35,CN,1569263653,63,33.24,119.31,64.37,6.06
138,Yatou,100,CM,1569263653,79,3.63,9.81,79.13,4.41
139,East Hemet,1,US,1569263653,50,33.74,-116.94,89.01,3.36
140,Inhambane,40,MZ,1569263259,73,-23.87,35.38,75.2,10.29
141,Etchojoa,40,MX,1569263653,59,26.91,-109.62,93.0,4.7
142,Husavik,5,CA,1569263277,40,50.56,-96.99,71.01,8.01
143,Albania,71,CO,1569263654,64,5.76,-73.91,78.59,4.41
144,Nouadhibou,0,MR,1569263220,69,20.93,-17.03,75.2,19.46
145,Nizhniy Baskunchak,0,RU,1569263654,62,48.22,46.83,46.55,6.71
146,Katobu,4,ID,1569263654,96,-4.94,122.53,71.03,2.55
147,Westport,1,US,1569263438,61,41.14,-73.36,89.01,11.41
148,Imbituba,0,BR,1569263051,49,-28.24,-48.67,68.0,11.41
149,Auki,1,NG,1569263276,43,12.18,6.51,83.81,4.16
150,Hervey Bay,55,AU,1569263655,93,-25.3,152.85,64.99,4.7
151,Sorland,0,NO,1569263271,66,67.67,12.69,48.2,11.41
152,Huilong,100,CN,1569263235,78,31.15,106.5,69.23,2.21
153,Mecca,0,SA,1569263367,79,21.43,39.83,80.03,1.54
154,Komsomolskiy,100,RU,1569263239,87,67.55,63.78,33.59,19.19
155,Port Lincoln,0,AU,1569263476,65,-34.72,135.86,55.01,5.46
156,Tuktoyaktuk,90,CA,1569263047,93,69.44,-133.03,37.4,6.93
157,Pozo Colorado,41,PY,1569263655,24,-23.49,-58.8,95.51,4.43
158,Victoria,75,BN,1569263246,74,5.28,115.24,84.2,4.7
159,Pyay,33,MM,1569263655,93,18.82,95.22,73.73,2.24
160,Kavieng,83,PG,1569263231,74,-2.57,150.8,82.19,6.15
161,Kavaratti,95,IN,1569263237,79,10.57,72.64,82.37,8.57
162,Castro,90,CL,1569263052,81,-42.48,-73.76,53.6,9.17
163,Keetmanshoop,0,NA,1569263656,6,-26.57,18.15,73.4,6.93
164,Cabo San Lucas,40,MX,1569263274,74,22.89,-109.91,87.01,6.93
165,Ostrovnoy,100,RU,1569263225,88,68.05,39.51,35.21,21.88
166,Rewari,40,IN,1569263656,83,28.2,76.62,78.8,5.82
167,Qasigiannguit,75,GL,1569263269,80,68.82,-51.19,39.2,5.82
168,Kashan,0,IR,1569263656,24,33.99,51.44,82.4,2.24
169,Tuatapere,97,NZ,1569263657,92,-46.13,167.69,42.01,5.99
170,Bull Savanna,65,JM,1569263657,69,17.89,-77.59,84.89,5.57
171,Xuanzhou,0,CN,1569263657,65,30.95,118.78,59.51,3.85
172,Kochevo,90,BG,1569263657,52,42.1,24.92,69.8,3.36
173,Aitape,5,PG,1569263657,88,-3.15,142.36,74.81,3.89
174,Talnakh,75,RU,1569263259,93,69.49,88.39,39.2,13.42
175,Druzhba,0,UA,1569263658,70,52.05,33.94,39.17,5.48
176,Kenai,1,US,1569263624,71,60.55,-151.26,51.01,16.11
177,Hualahuises,0,MX,1569263658,55,24.88,-99.67,78.23,6.26
178,San Joaquin,31,PH,1569263658,91,10.59,122.14,75.71,2.21
179,Marabba,70,SD,1569263658,44,12.35,32.18,87.77,7.05
180,Nagua,20,DO,1569263658,79,19.37,-69.85,87.8,17.22
181,Oktyabrskiy,75,RU,1569263659,75,55.61,37.97,41.0,13.42
182,Pisco,0,PE,1569263266,30,-13.71,-76.2,71.6,12.75
183,Kovdor,80,RU,1569263659,98,67.56,30.47,31.07,7.63
184,Salamanca,40,MX,1569263659,56,20.57,-101.19,75.99,5.5
185,Samana,75,EC,1569263455,74,0.12,-76.97,82.4,3.36
186,Road Town,40,VG,1569263659,74,18.42,-64.62,89.6,9.17
187,Lebu,75,ET,1569263239,93,8.96,38.73,59.0,3.36
188,Mariental,90,BR,1569263659,76,-25.72,-49.65,55.99,12.75
189,Hualmay,74,PE,1569263660,93,-11.1,-77.61,61.31,13.47
190,Tiksi,100,RU,1569263229,96,71.64,128.87,36.11,5.75
191,Kostomuksha,69,RU,1569263660,87,64.59,30.6,31.97,7.05
192,Nantucket,1,US,1569263660,78,41.28,-70.1,78.8,16.11
193,Kijang,40,KR,1569263660,93,35.24,129.21,60.8,4.7
194,Norman Wells,75,CA,1569263236,81,65.28,-126.83,44.6,3.36
195,Tiznit,23,MA,1569263660,90,29.7,-9.73,68.51,10.07
196,Ornskoldsvik,0,SE,1569263617,80,63.29,18.72,44.6,1.12
197,Tautira,20,PF,1569263276,69,-17.73,-149.15,80.6,2.24
198,Torbay,90,CA,1569263244,82,47.66,-52.73,64.99,32.21
199,North Bend,1,US,1569263567,77,43.41,-124.22,66.0,3.36
200,Angoche,58,MZ,1569263661,78,-16.23,39.91,74.63,8.48
201,Yellowknife,75,CA,1569263060,75,62.45,-114.38,44.6,13.87
202,Tura,99,RU,1569263661,91,64.27,100.22,35.39,4.88
203,Comodoro Rivadavia,0,AR,1569263231,35,-45.87,-67.48,69.8,18.34
204,Rawson,29,AR,1569263285,29,-43.3,-65.11,67.97,19.91
205,Vangaindrano,15,MG,1569263661,96,-23.35,47.6,65.45,3.44
206,Smithers,90,CA,1569263573,93,54.78,-127.17,42.8,4.7
207,Ambilobe,55,MG,1569263661,62,-13.19,49.05,75.89,9.31
208,Changji,100,CN,1569263662,45,32.07,116.17,65.81,5.39
209,Fort-Shevchenko,0,KZ,1569263662,63,44.51,50.26,66.53,8.61
210,Quimper,90,FR,1569263662,100,48.0,-4.1,63.0,11.41
211,Lake Cowichan,90,CA,1569263662,93,48.82,-124.05,55.99,2.24
212,Okha,100,RU,1569263662,88,53.59,142.95,47.63,26.71
213,Aden,33,YE,1569263662,56,12.79,45.03,90.11,4.92
214,Sao Benedito do Rio Preto,89,BR,1569263663,36,-3.33,-43.53,95.51,4.47
215,Sur,0,OM,1569263663,70,22.57,59.53,80.39,1.61
216,Mount Gambier,75,AU,1569263225,100,-37.83,140.78,42.8,8.05
217,Lasa,0,CY,1569263663,69,34.92,32.53,77.0,5.82
218,Wiarton,75,CA,1569263663,88,44.74,-81.13,64.99,11.41
219,Nizwa,99,OM,1569263663,30,22.93,57.53,83.27,3.62
220,Uvarovka,57,RU,1569263663,78,55.53,35.61,34.67,5.59
221,Mahajanga,0,MG,1569263641,50,-15.72,46.32,78.8,3.36
222,Augusto Correa,91,BR,1569263269,56,-1.02,-46.63,88.85,5.46
223,Okakarara,3,NA,1569263664,13,-20.59,17.46,71.03,10.02
224,Semenivka,0,UA,1569263664,73,52.18,32.58,37.91,5.06
225,Sarankhola,100,BD,1569263664,88,22.31,89.79,79.67,4.65
226,Palmer,40,AU,1569263664,93,-34.85,139.16,46.99,3.83
227,Upernavik,100,GL,1569263227,86,72.79,-56.15,37.73,1.66
228,Maragogi,90,BR,1569263664,79,-9.01,-35.22,77.69,10.74
229,Kuching,75,MY,1569263277,83,1.56,110.34,80.6,3.36
230,Matara,0,BI,1569263241,74,-3.48,29.48,80.6,9.17
231,Saskylakh,95,RU,1569263232,88,71.97,114.09,31.07,7.56
232,Ribeira Grande,20,PT,1569263249,60,38.52,-28.7,73.4,13.87
233,Geraldton,90,CA,1569263574,58,49.72,-86.95,59.0,3.36
234,Byron Bay,98,AU,1569263665,77,-28.65,153.62,64.0,8.05
235,Sebina,0,BW,1569263665,28,-20.83,27.22,84.2,12.75
236,Elliot Lake,75,CA,1569263665,88,46.37,-82.65,62.6,12.75
237,Sibu,75,MY,1569263665,94,2.29,111.83,78.8,3.13
238,Kodiak,1,US,1569263236,54,39.95,-94.76,78.8,8.05
239,Nicoya,20,CR,1569263666,70,10.15,-85.45,84.2,10.29
240,Hasaki,20,JP,1569263088,83,35.73,140.83,77.0,8.05
241,Maraa,100,BR,1569263666,72,-1.83,-65.37,81.65,2.84
242,Nkowakowa,0,ZA,1569263666,18,-23.89,30.29,69.8,8.05
243,Cambridge,90,CA,1569263666,68,43.39,-80.31,77.0,11.41
244,Hovd,0,NO,1569263666,81,63.83,10.7,55.0,5.82
245,Gualaquiza,99,EC,1569263666,82,-3.4,-78.58,58.97,7.16
246,Sangar,48,RU,1569263667,90,63.92,127.47,34.49,11.52
247,Yelizovo,25,RU,1569263667,93,53.19,158.38,35.6,8.95
248,Port Hedland,10,AU,1569263667,77,-20.31,118.58,62.6,6.93
249,Nago,40,IT,1569263667,93,45.88,10.89,62.6,2.24
250,Chifeng,0,CN,1569263667,33,42.27,118.96,56.81,10.09
251,Watsa,50,CD,1569263667,96,3.04,29.53,68.69,2.95
252,Xuddur,8,SO,1569263667,41,4.12,43.89,81.65,11.77
253,Havoysund,75,NO,1569263458,86,71.0,24.66,37.4,10.29
254,Camacha,20,PT,1569263420,73,33.08,-16.33,75.2,9.17
255,Yulara,90,AU,1569263076,58,-25.24,130.99,57.2,4.7
256,Kaitangata,61,NZ,1569263257,62,-46.28,169.85,44.01,8.01
257,Kilindoni,0,TZ,1569263668,77,-7.91,39.67,78.95,15.73
258,Rodrigues Alves,75,BR,1569263668,56,-7.74,-72.65,93.2,4.7
259,Lavrentiya,0,RU,1569263242,76,65.58,-170.99,26.75,3.96
260,Altay,100,CN,1569263488,37,47.83,88.13,57.17,4.54
261,Tanta,0,EG,1569263668,91,30.78,31.0,67.43,5.7
262,Rumphi,0,MW,1569263669,31,-11.02,33.86,72.83,9.4
263,Barcelona,20,ES,1569263412,68,41.38,2.18,73.99,12.75
264,Tigil,100,RU,1569263669,92,57.8,158.67,45.83,17.38
265,Ozinki,50,RU,1569263669,66,51.2,49.73,40.61,11.21
266,Ketchikan,90,US,1569263669,100,55.34,-131.65,51.8,26.4
267,Tsumeb,0,NA,1569263670,10,-19.25,17.72,71.6,3.36
268,Cherskiy,100,RU,1569263121,97,68.75,161.3,28.01,3.02
269,Russell,1,US,1569263405,36,38.9,-98.86,87.01,9.17
270,Tasiilaq,90,GL,1569263082,87,65.61,-37.64,44.6,29.97
271,Clyde River,75,CA,1569263241,86,70.47,-68.59,33.8,11.41
272,Umm Lajj,0,SA,1569263670,75,25.02,37.27,84.53,9.8
273,Liverpool,75,GB,1569263427,100,53.41,-2.98,59.0,13.87
274,Longyearbyen,75,NO,1569263068,83,78.22,15.63,35.6,5.82
275,Pitimbu,40,BR,1569263122,65,-7.47,-34.81,82.4,19.46
276,Bandarbeyla,80,SO,1569263244,68,9.49,50.81,77.15,24.25
277,Leningradskiy,100,RU,1569263253,97,69.38,178.42,36.65,19.1
278,Lovozero,100,RU,1569263670,98,68.01,35.02,32.15,16.93
279,Gamba,98,CN,1569263248,77,28.28,88.52,35.75,3.47
280,Carroll,0,AU,1569263671,60,-30.99,150.44,39.2,3.36
281,Mount Isa,40,AU,1569263256,13,-20.73,139.49,71.6,11.41
282,Esperance,100,AU,1569263234,76,-33.86,121.89,50.0,14.99
283,Chokurdakh,83,RU,1569263233,84,70.62,147.9,25.31,5.01
284,Campos Sales,41,BR,1569263671,21,-7.07,-40.37,95.87,9.19
285,Teguise,20,ES,1569263671,65,29.06,-13.56,77.0,21.92
286,Brokopondo,40,SR,1569263671,55,5.06,-54.98,91.4,9.17
287,Haines Junction,100,CA,1569263270,84,60.75,-137.51,35.21,2.82
288,Ciudad Bolivar,100,VE,1569263671,78,8.12,-63.55,79.31,5.37
289,Matinha,85,BR,1569263672,51,-3.1,-45.04,89.93,3.49
290,Bambanglipuro,63,ID,1569263672,86,-7.95,110.28,73.37,8.77
291,Mayo,75,CA,1569263282,79,63.59,-135.9,37.4,5.82
292,Villamontes,2,BO,1569263672,27,-21.26,-63.47,89.6,11.41
293,Jasper,20,US,1569263643,44,33.83,-87.28,93.2,6.08
294,Ponazyrevo,59,RU,1569263672,95,58.36,46.31,28.91,4.92
295,Hobyo,0,SO,1569263262,80,5.35,48.53,76.07,28.45
296,Minab,0,IR,1569263672,70,27.15,57.07,91.4,4.7
297,Pratapgarh,100,IN,1569263673,81,25.92,82.0,77.69,6.62
298,Ulladulla,0,AU,1569263673,70,-35.36,150.48,46.0,10.29
299,Gushikawa,40,JP,1569263673,78,26.35,127.87,77.0,3.36
300,Arraial do Cabo,75,BR,1569263088,64,-22.97,-42.02,71.6,11.41
301,Cockburn Town,40,TC,1569263565,74,21.46,-71.14,87.8,6.93
302,Lazarev,100,RU,1569263673,88,52.23,141.51,50.69,36.53
303,Half Moon Bay,20,US,1569263673,77,37.46,-122.43,77.0,6.85
304,Codrington,75,AU,1569263224,93,-28.95,153.24,62.6,3.6
305,Iranshahr,0,IR,1569263674,20,27.21,60.69,95.0,4.7
306,Saint-Philippe,90,CA,1569263219,88,45.36,-73.48,75.2,14.99
307,Whitianga,100,NZ,1569263674,93,-36.83,175.7,55.99,4.0
308,Conakry,77,GN,1569263674,78,9.52,-13.7,80.21,7.58
309,San Patricio,0,PY,1569263254,41,-26.98,-56.83,79.85,6.89
310,Magadi,40,IN,1569263674,94,12.96,77.22,71.6,2.24
311,Avera,1,US,1569263674,29,33.19,-82.53,91.4,3.8
312,Brazzaville,20,CD,1569263675,52,-4.27,15.27,89.6,8.05
313,Vao,100,EE,1569263268,64,59.1,26.19,45.47,7.72
314,Dinanagar,11,IN,1569263675,62,32.14,75.47,80.93,6.33
315,Trincomalee,100,LK,1569263675,94,8.58,81.23,75.35,5.84
316,Port Lavaca,1,US,1569263675,63,28.61,-96.63,95.0,4.7
317,Nyurba,42,RU,1569263675,93,63.29,118.35,31.25,2.82
318,Khorinsk,6,RU,1569263675,85,52.16,109.78,46.91,2.08
319,Ust-Ordynskiy,0,RU,1569263589,76,52.8,104.75,51.8,8.95
320,Darhan,10,MN,1569263676,66,49.49,105.92,56.27,7.92
321,Ponta Delgada,20,PT,1569263676,83,37.73,-25.67,73.4,17.22
322,Severo-Yeniseyskiy,97,RU,1569263676,86,60.37,93.04,42.59,11.83
323,Arlit,0,NE,1569263532,8,18.74,7.39,99.83,9.35
324,Los Llanos de Aridane,90,ES,1569263228,83,28.66,-17.92,71.6,8.05
325,Zhezkazgan,0,KZ,1569263676,38,47.8,67.71,55.91,15.26
326,Sistranda,0,NO,1569263552,81,63.73,8.83,55.0,8.05
327,Farafenni,75,GM,1569263677,70,13.57,-15.6,87.23,3.85
328,Taree,75,AU,1569263677,87,-31.91,152.46,48.2,1.12
329,Tomatlan,11,MX,1569263220,77,19.93,-105.25,83.81,4.29
330,Trat,100,TH,1569263677,93,12.25,102.51,74.63,2.26
331,Ucluelet,90,CA,1569263677,100,48.94,-125.55,55.99,8.05
332,The Valley,40,AI,1569263257,70,18.22,-63.06,86.0,16.11
333,Khatra,100,IN,1569263677,88,22.98,86.85,78.23,7.61
334,Adrar,0,DZ,1569263677,9,27.87,-0.29,105.8,9.17
335,Bulgan,11,MN,1569263678,55,48.81,103.53,53.93,5.53
336,Dawlatabad,0,AF,1569263219,32,36.41,64.91,65.27,5.68
337,Lagoa,0,PT,1569263243,68,37.14,-8.45,77.0,6.93
338,Batagay-Alyta,64,RU,1569263678,73,67.8,130.41,23.51,6.42
339,Cordoba,46,AR,1569263508,16,-27.78,-67.24,80.21,11.63
340,Sydney,0,AU,1569263499,57,-33.85,151.22,51.01,10.29
341,Bud,0,NO,1569263678,81,62.91,6.91,53.6,1.12
342,Gigmoto,23,PH,1569263678,76,13.78,124.39,81.83,6.4
343,Aleysk,0,RU,1569263679,82,52.5,82.77,45.83,8.3
344,Camopi,100,GF,1569263679,36,3.17,-52.33,93.71,3.96
345,Sokoni,22,CD,1569263228,28,-12.89,28.78,80.01,5.01
346,Flinders,0,AU,1569263472,70,-34.58,150.85,51.01,10.29
347,Kingaroy,68,AU,1569263679,32,-26.54,151.84,57.99,4.7
348,Piracuruca,49,BR,1569263679,19,-3.93,-41.72,101.81,3.27
349,San Fernando,40,TT,1569263679,55,10.28,-61.46,90.0,8.05
350,Tiarei,20,PF,1569263225,69,-17.53,-149.33,80.6,2.24
351,Evensk,100,RU,1569263074,80,61.92,159.24,38.81,9.1
352,Princeton,1,US,1569263500,48,40.35,-74.66,91.0,9.17
353,Andilamena,20,MG,1569263680,82,-17.01,48.57,61.49,10.0
354,Faya,0,SA,1569263276,82,18.39,42.45,75.2,4.7
355,Pascagoula,40,US,1569263680,43,30.37,-88.56,90.0,9.17
356,Caborca,8,MX,1569263680,65,30.58,-111.1,84.0,4.0
357,Dunedin,15,NZ,1569263402,65,-45.87,170.5,45.0,3.0
358,Ishinomaki,9,JP,1569263680,78,38.42,141.3,66.53,9.62
359,Vidim,0,CZ,1569263680,71,50.47,14.53,61.0,2.39
360,Hare Bay,90,CA,1569263681,77,48.86,-53.99,66.2,18.34
361,Praia da Vitoria,40,PT,1569263681,73,38.73,-27.07,73.4,13.22
362,Bacolod,4,PH,1569263681,85,10.68,122.95,78.23,9.42
363,Dover,1,US,1569263666,33,39.16,-75.52,93.0,9.17
364,Ahuimanu,90,US,1569263234,94,21.44,-157.84,82.4,3.36
365,Manggar,4,ID,1569263681,93,-2.88,108.27,74.81,2.15
366,Malanje,97,AO,1569263681,68,-9.54,16.35,73.37,9.82
367,Grand Gaube,40,MU,1569263258,68,-20.01,57.66,71.6,18.34
368,Roald,0,NO,1569263254,87,62.58,6.12,53.6,3.36
369,Talaya,20,RU,1569263255,86,55.79,84.89,43.0,11.18
370,San Cristobal,13,HN,1569263249,56,14.68,-86.92,84.71,2.68
371,Koygorodok,28,RU,1569263682,96,60.44,51.01,28.19,4.16
372,Log,90,SI,1569263682,100,46.0,15.32,62.6,6.93
373,Anloga,40,GH,1569263682,88,5.79,0.9,78.8,11.41
374,Juneau,90,US,1569263444,87,58.3,-134.42,48.2,5.46
375,Margate,40,AU,1569263683,90,-43.03,147.26,48.2,12.75
376,Harper,75,US,1569263683,49,30.3,-99.24,91.99,6.93
377,Dudinka,75,RU,1569263443,93,69.41,86.18,39.2,13.42
378,Zhangye,0,CN,1569263683,33,38.94,100.46,57.17,4.59
379,Louis Trichardt,0,ZA,1569263683,81,-23.04,29.91,61.85,15.73
380,Barreirinhas,64,BR,1569263683,52,-2.75,-42.83,88.31,10.63
381,Ilulissat,75,GL,1569263284,80,69.22,-51.1,39.2,5.82
382,Karlskrona,0,SE,1569263401,81,56.16,15.59,48.2,6.93
383,Along,100,IN,1569263684,99,28.17,94.8,54.11,1.99
384,Atasu,0,KZ,1569263684,38,48.68,71.64,51.23,13.31
385,Kieta,100,PG,1569263240,81,-6.22,155.63,77.33,3.09
386,Taft,90,PH,1569263684,97,11.9,125.42,71.39,2.21
387,Omsukchan,94,RU,1569263233,96,62.53,155.8,25.67,7.94
388,Pictou,100,CA,1569263406,80,45.68,-62.71,80.01,11.99
389,Bato,4,PH,1569263684,88,13.36,123.37,78.23,6.58
390,Jiutai,0,CN,1569263685,87,44.15,125.84,48.2,2.24
391,Constitucion,40,MX,1569263685,49,23.99,-104.67,75.0,4.7
392,Pushkinskiye Gory,95,RU,1569263685,78,57.02,28.91,38.63,3.89
393,Katsuura,75,JP,1569263141,73,33.93,134.5,73.4,8.05
394,Alofi,40,NU,1569263235,87,-19.06,-169.92,59.0,5.82
395,Devrek,76,TR,1569263685,56,41.22,31.96,65.99,5.3
396,Chanika,12,MW,1569263685,56,-12.93,34.19,67.25,1.05
397,Kununurra,44,AU,1569263280,50,-15.77,128.74,75.2,11.41
398,Kuala Pilah,75,MY,1569263686,94,2.74,102.25,80.6,4.97
399,Moose Factory,90,CA,1569263686,93,51.26,-80.61,50.0,6.93
400,Hofn,90,IS,1569263686,87,64.25,-15.21,51.8,3.36
401,Vardo,90,US,1569263597,37,39.62,-77.74,93.0,11.41
402,Sanica,40,BA,1569263686,93,44.62,16.65,64.4,0.47
403,Henties Bay,0,NA,1569263686,78,-22.12,14.28,63.0,5.01
404,Pakxan,0,LA,1569263686,78,18.39,103.66,68.15,4.54
405,Bilibino,54,RU,1569263241,96,68.06,166.44,14.87,1.39
406,Tovste,100,UA,1569263687,67,48.84,25.73,60.8,12.28
407,Narsaq,75,GL,1569263220,66,60.91,-46.05,48.2,5.82
408,Cumbum,38,IN,1569263687,82,15.58,79.11,78.41,3.15
409,Matagami,90,NG,1569263687,91,9.67,8.4,73.55,3.53
410,Zhigansk,94,RU,1569263242,80,66.77,123.37,35.57,5.79
411,Makakilo City,90,US,1569263234,94,21.35,-158.09,82.4,3.36
412,Alpena,90,US,1569263616,72,45.06,-83.43,64.4,8.05
413,Bhitarwar,75,IN,1569263687,100,25.8,78.11,75.2,4.7
414,La Palma,95,CO,1569263688,54,5.36,-74.39,85.07,4.41
415,Vila Franca do Campo,20,PT,1569263270,83,37.72,-25.43,73.4,17.22
416,Mahibadhoo,100,MV,1569263267,76,3.78,72.97,82.73,15.26
417,Noumea,90,NC,1569263688,82,-22.28,166.46,73.0,2.24
418,Bomet,86,KE,1569263688,91,-0.78,35.34,59.51,5.77
419,Mareeba,75,AU,1569263688,77,-16.99,145.42,70.0,6.93
420,Aljezur,40,PT,1569263688,80,37.31,-8.8,77.0,1.01
421,Antalaha,67,MG,1569263689,88,-14.9,50.28,65.99,2.8
422,Birao,80,CF,1569263689,73,10.3,22.78,78.95,5.59
423,Talcahuano,0,CL,1569263245,55,-36.72,-73.12,62.6,10.29
424,Beyneu,21,KZ,1569263689,69,45.32,55.19,58.25,11.34
425,Walla Walla,40,US,1569263580,52,46.06,-118.33,69.8,17.22
426,Cururupu,93,BR,1569263689,55,-1.82,-44.87,87.05,5.73
427,Wilmington,1,US,1569263249,31,39.75,-75.55,91.99,5.82
428,Amilly,75,FR,1569263690,55,47.98,2.77,66.2,5.82
429,Salta,75,AR,1569263690,27,-24.79,-65.41,78.8,8.05
430,Chimoio,0,MZ,1569263690,78,-19.11,33.48,75.2,7.43
431,Aksarka,100,RU,1569263280,87,66.56,67.8,33.77,13.69
432,Normandin,75,CA,1569263690,63,48.84,-72.53,60.8,8.05
433,Takoradi,62,GH,1569263690,86,4.89,-1.75,76.79,7.31
434,Durusu,0,TR,1569263690,30,37.53,40.83,71.6,9.17
435,Ulaanbaatar,0,MN,1569263691,80,47.92,106.92,35.6,2.24
436,Caravelas,100,BR,1569263051,77,-17.73,-39.27,72.65,25.32
437,Coffeyville,1,US,1569263691,57,37.04,-95.62,84.0,4.7
438,Griffith,0,AU,1569263099,80,-34.29,146.06,33.8,3.36
439,Fort Nelson,20,CA,1569263691,50,58.81,-122.69,51.8,5.82
440,Balkanabat,0,TM,1569263691,35,39.51,54.36,75.71,5.97
441,Leua,79,AO,1569263691,41,-11.65,20.45,73.91,1.66
442,Te Anau,37,NZ,1569263263,73,-45.41,167.72,38.63,6.42
443,Aswan,0,EG,1569263271,26,24.09,32.9,93.2,9.17
444,Namatanai,100,PG,1569263135,79,-3.66,152.44,78.23,5.64
445,Vila,5,IT,1569263692,72,45.18,8.4,68.0,2.24
446,Forbes,0,AU,1569263692,72,-33.38,148.01,41.0,1.48
447,Outlook,63,CA,1569263692,52,51.48,-107.04,63.0,8.01
448,Daru,97,PG,1569263692,86,-9.07,143.21,73.37,7.14
449,El Salto,75,MX,1569263693,65,20.52,-103.18,82.0,5.82
450,Ustka,0,PL,1569263693,79,54.58,16.86,56.99,12.59
451,Gorontalo,4,ID,1569263693,94,0.54,123.06,71.39,2.66
452,Xian,75,ES,1569263693,93,42.76,-8.49,68.0,17.22
453,Opuwo,13,NA,1569263230,21,-18.06,13.84,78.59,14.12
454,Jagdispur,75,IN,1569263693,88,25.47,84.42,82.4,4.7
455,Rosetta,20,EG,1569263693,61,31.4,30.42,77.0,9.17
456,Muros,75,ES,1569263099,93,42.77,-9.06,68.0,17.22
457,Padang,64,ID,1569263694,85,-0.92,100.36,78.77,11.34
458,Virginia Beach,20,US,1569263438,48,36.85,-75.98,89.6,12.75
459,Taldan,0,RU,1569263694,78,53.69,124.82,34.85,7.58
460,Cayenne,20,GF,1569263224,59,4.94,-52.33,89.6,9.17
461,Kyshtovka,71,RU,1569263694,44,56.56,76.62,52.31,19.64
462,Mitsamiouli,22,KM,1569263694,73,-11.38,43.28,78.41,7.74
463,Mocuba,88,MZ,1569263694,57,-16.84,36.99,78.23,9.42
464,Igrim,100,RU,1569263695,85,63.19,64.42,34.67,9.73
465,Haimen,9,CN,1569263695,76,31.87,121.18,71.01,3.62
466,Vila Velha,20,BR,1569263695,62,-3.71,-38.6,84.2,18.34
467,Badiraguato,75,MX,1569263695,70,25.36,-107.55,91.99,5.82
468,Aktau,0,KZ,1569263695,76,43.65,51.16,57.2,6.71
469,Saint-Pierre,0,FR,1569263695,82,48.95,4.24,60.8,6.93
470,Bubaque,33,GW,1569263218,73,11.28,-15.83,82.19,7.27
471,Nikolayevsk-na-amure,100,RU,1569263696,94,53.14,140.72,42.77,7.43
472,Pangnirtung,20,CA,1569263232,86,66.15,-65.72,39.2,12.75
473,Axim,38,GH,1569263696,88,4.87,-2.24,77.15,11.88
474,San Carlos de Bariloche,40,AR,1569263696,38,-41.13,-71.31,60.8,16.11
475,Houlton,90,US,1569263696,88,46.13,-67.84,69.8,6.93
476,Karwar,13,IN,1569263696,84,14.8,74.13,78.59,5.88
